City_ID,City,Lat,Lng,Max Temp,Humidity,Cloudiness,Wind Speed,Country,Date
0,wailua homesteads,22.0669,-159.378,74.19,76,20,11.5,US,Fri Jul 19 12:24:35 2024
1,iskateley,67.6803,53.1512,49.23,66,0,14.99,RU,Fri Jul 19 12:24:35 2024
2,touros,-5.1989,-35.4608,82.04,68,51,19.08,BR,Fri Jul 19 12:24:35 2024
3,grytviken,-54.2811,-36.5092,32.09,98,100,3.0,GS,Fri Jul 19 12:23:01 2024
4,bethel,41.3712,-73.414,79.93,61,0,6.91,US,Fri Jul 19 12:19:48 2024
5,eldorado,-23.7869,-54.2836,81.03,36,0,8.72,BR,Fri Jul 19 12:24:35 2024
6,bilibino,68.0546,166.4372,48.02,76,100,3.56,RU,Fri Jul 19 12:22:55 2024
7,port-aux-francais,-49.35,70.2167,32.05,67,63,8.97,TF,Fri Jul 19 12:22:59 2024
8,vorgashor,67.5833,63.95,51.17,60,0,18.52,RU,Fri Jul 19 12:21:11 2024
9,blackmans bay,-43.0167,147.3167,39.52,90,100,2.62,AU,Fri Jul 19 12:24:36 2024
10,castillos,-34.1667,-53.8333,52.54,91,99,5.91,UY,Fri Jul 19 12:24:36 2024
11,invercargill,-46.4,168.35,41.45,94,77,5.14,NZ,Fri Jul 19 12:24:36 2024
12,mongoumba,3.6415,18.5936,85.98,51,98,1.39,CF,Fri Jul 19 12:24:36 2024
13,island harbour,50.724,-1.2758,79.03,76,4,14.79,GB,Fri Jul 19 12:24:37 2024
14,haiku-pauwela,20.9219,-156.3051,71.26,87,20,12.66,US,Fri Jul 19 12:24:37 2024
15,bodden town,19.2833,-81.25,91.4,79,40,12.66,KY,Fri Jul 19 12:24:37 2024
16,yellowknife,62.456,-114.3525,72.41,61,40,13.8,CA,Fri Jul 19 12:24:37 2024
17,corner brook,48.9667,-57.9484,77.16,53,94,11.43,CA,Fri Jul 19 12:24:37 2024
18,mount pearl,47.5166,-52.7813,71.94,91,100,23.02,CA,Fri Jul 19 12:24:38 2024
19,horta,38.5333,-28.6333,78.44,78,20,17.27,PT,Fri Jul 19 12:24:38 2024
20,aflou,34.1128,2.1023,97.65,14,77,22.77,DZ,Fri Jul 19 12:24:38 2024
21,albany,42.6001,-73.9662,77.45,56,0,4.0,US,Fri Jul 19 12:24:38 2024
22,kone,-21.0595,164.8658,64.72,70,90,4.18,NC,Fri Jul 19 12:24:38 2024
23,waitangi,-43.9535,-176.5597,52.83,94,100,26.96,NZ,Fri Jul 19 12:24:38 2024
24,carnarvon,-24.8667,113.6333,60.8,50,0,17.83,AU,Fri Jul 19 12:24:38 2024
25,labrador city,52.9463,-66.9114,73.18,41,75,38.01,CA,Fri Jul 19 12:24:39 2024
26,avarua,-21.2078,-159.775,68.05,68,40,1.14,CK,Fri Jul 19 12:24:39 2024
27,fort st. john,56.2499,-120.8529,66.09,59,75,9.22,CA,Fri Jul 19 12:24:39 2024
28,puerto baquerizo moreno,-0.9,-89.6,74.39,78,75,10.36,EC,Fri Jul 19 12:24:39 2024
29,longyearbyen,78.2186,15.6401,46.24,76,20,24.16,SJ,Fri Jul 19 12:20:46 2024
30,gembu,6.7,11.2667,63.84,99,100,3.53,NG,Fri Jul 19 12:24:39 2024
31,ushuaia,-54.8,-68.3,42.42,81,75,3.44,AR,Fri Jul 19 12:23:55 2024
32,smithers,54.7804,-127.1743,59.32,100,75,3.44,CA,Fri Jul 19 12:19:50 2024
33,aras-asan,8.8908,126.3033,77.86,89,100,5.55,PH,Fri Jul 19 12:24:40 2024
34,selfoss,63.9331,-20.9971,56.17,71,99,4.83,IS,Fri Jul 19 12:24:40 2024
35,yeppoon,-23.1333,150.7333,50.25,59,3,5.97,AU,Fri Jul 19 12:24:40 2024
36,ancud,-41.8697,-73.8203,44.85,72,42,8.86,CL,Fri Jul 19 12:24:40 2024
37,margaret river,-33.95,115.0667,58.57,67,100,18.72,AU,Fri Jul 19 12:23:50 2024
38,hermanus,-34.4187,19.2345,53.8,82,25,20.18,ZA,Fri Jul 19 12:24:41 2024
39,adamstown,-25.066,-130.1015,71.51,86,100,28.81,PN,Fri Jul 19 12:24:41 2024
40,lobito,-12.3481,13.5456,70.47,82,60,7.14,AO,Fri Jul 19 12:24:41 2024
41,lihue,21.9789,-159.3672,74.79,76,20,11.5,US,Fri Jul 19 12:23:01 2024
42,ribeira grande,38.5167,-28.7,79.2,65,20,17.27,PT,Fri Jul 19 12:24:41 2024
43,lebu,-37.6167,-73.65,45.72,60,1,18.79,CL,Fri Jul 19 12:22:57 2024
44,san antonio de pale,-1.4014,5.6325,73.67,78,72,10.49,GQ,Fri Jul 19 12:23:30 2024
45,ouadda,8.0777,22.4007,74.19,90,78,5.14,CF,Fri Jul 19 12:24:42 2024
46,atafu village,-8.5421,-172.5159,82.71,76,100,19.53,TK,Fri Jul 19 12:24:42 2024
47,praia da vitoria,38.7333,-27.0667,79.05,65,20,5.77,PT,Fri Jul 19 12:24:42 2024
48,london,51.5085,-0.1257,88.25,44,65,8.05,GB,Fri Jul 19 12:23:20 2024
49,punta arenas,-53.15,-70.9167,44.71,76,75,23.02,CL,Fri Jul 19 12:24:00 2024
50,puerto natales,-51.7236,-72.4875,48.65,49,75,26.46,CL,Fri Jul 19 12:23:31 2024
51,west island,-12.1568,96.8225,80.58,78,40,16.11,CC,Fri Jul 19 12:23:47 2024
52,tannum sands,-23.9504,151.3693,48.09,87,3,8.05,AU,Fri Jul 19 12:24:43 2024
53,hamilton,39.1834,-84.5333,79.25,53,0,9.22,US,Fri Jul 19 12:20:32 2024
54,tam ky,15.5667,108.4833,79.23,90,100,2.93,VN,Fri Jul 19 12:24:43 2024
55,callao,-12.0667,-77.15,72.72,72,100,10.36,PE,Fri Jul 19 12:24:43 2024
56,kavaratti,10.5669,72.642,80.44,86,100,17.6,IN,Fri Jul 19 12:24:44 2024
57,stanley,54.868,-1.6985,80.19,57,20,8.05,GB,Fri Jul 19 12:19:45 2024
58,micheweni,-4.9667,39.8333,76.64,75,18,10.45,TZ,Fri Jul 19 12:24:44 2024
59,waimea,20.0231,-155.6717,64.45,96,9,4.0,US,Fri Jul 19 12:24:44 2024
60,san julian,21.0167,-102.1667,66.24,71,100,5.82,MX,Fri Jul 19 12:24:44 2024
61,nogliki,51.8333,143.1667,59.49,98,100,7.96,RU,Fri Jul 19 12:24:44 2024
62,manokwari,-0.8667,134.0833,76.69,86,100,4.97,ID,Fri Jul 19 12:24:45 2024
63,talnakh,69.4865,88.3972,50.22,57,33,13.44,RU,Fri Jul 19 12:24:45 2024
64,novyy urgal,51.0736,132.5642,62.01,93,69,0.2,RU,Fri Jul 19 12:24:45 2024
65,znamenskoye,57.1281,73.8282,58.57,86,100,4.45,RU,Fri Jul 19 12:24:45 2024
66,aliade,7.2964,8.487,72.32,97,100,7.36,NG,Fri Jul 19 12:24:45 2024
67,port mathurin,-19.6833,63.4167,73.71,73,1,11.74,MU,Fri Jul 19 12:24:45 2024
68,verkhotur'ye,58.8627,60.8054,61.3,99,100,4.7,RU,Fri Jul 19 12:24:46 2024
69,mejit,10.2753,170.8646,81.93,76,83,18.81,MH,Fri Jul 19 12:24:46 2024
70,ribeirao bonito,-22.0667,-48.1761,84.83,22,0,3.09,BR,Fri Jul 19 12:24:46 2024
71,villa de cos,23.2833,-102.35,69.28,58,36,11.43,MX,Fri Jul 19 12:24:46 2024
72,edinburgh of the seven seas,-37.0676,-12.3116,55.0,67,100,12.64,SH,Fri Jul 19 12:24:46 2024
73,batac city,18.0554,120.5649,82.18,94,20,0.0,PH,Fri Jul 19 12:24:46 2024
74,bathurst,-33.4166,149.5806,46.96,85,99,5.99,AU,Fri Jul 19 12:24:46 2024
75,badger,64.8,-147.5333,56.71,79,20,3.44,US,Fri Jul 19 12:24:13 2024
76,muurame,62.1333,25.6667,67.15,79,95,5.03,FI,Fri Jul 19 12:24:47 2024
77,kayyerkan,69.3786,87.7439,45.18,67,31,19.48,RU,Fri Jul 19 12:24:47 2024
78,kirakira,-10.4544,161.9205,78.94,88,39,7.2,SB,Fri Jul 19 12:24:47 2024
79,bengbu,32.9408,117.3608,80.71,86,100,6.06,CN,Fri Jul 19 12:24:47 2024
80,aykhal,66.0,111.5,54.88,73,39,5.44,RU,Fri Jul 19 12:24:47 2024
81,udachny,66.4167,112.4,58.68,61,64,4.05,RU,Fri Jul 19 12:24:47 2024
82,papatowai,-46.5619,169.4708,44.94,89,100,6.64,NZ,Fri Jul 19 12:24:48 2024
83,tura,25.5198,90.2201,77.49,96,100,4.29,IN,Fri Jul 19 12:24:48 2024
84,pastos bons,-6.6017,-44.0767,93.65,26,1,8.68,BR,Fri Jul 19 12:24:48 2024
85,tiksi,71.6872,128.8694,40.93,69,100,3.44,RU,Fri Jul 19 12:23:12 2024
86,sennoy,52.1509,46.9631,85.86,26,67,10.65,RU,Fri Jul 19 12:20:10 2024
87,kendari,-3.945,122.4989,72.16,90,52,3.22,ID,Fri Jul 19 12:24:48 2024
88,fortuna,40.5982,-124.1573,61.72,91,0,0.0,US,Fri Jul 19 12:14:59 2024
89,cabo san lucas,22.8909,-109.9124,92.5,55,0,1.99,MX,Fri Jul 19 12:21:57 2024
90,port lincoln,-34.7333,135.8667,50.88,65,19,33.91,AU,Fri Jul 19 12:24:49 2024
91,jamestown,42.097,-79.2353,72.99,50,3,1.99,US,Fri Jul 19 12:20:33 2024
92,olonkinbyen,70.9221,-8.7187,41.2,95,100,5.26,SJ,Fri Jul 19 12:24:49 2024
93,port elizabeth,-33.918,25.5701,60.31,68,0,8.05,ZA,Fri Jul 19 12:20:42 2024
94,el granada,37.5027,-122.4694,74.19,72,20,4.61,US,Fri Jul 19 12:24:50 2024
95,gadzhiyevo,69.2551,33.3362,64.8,68,43,14.07,RU,Fri Jul 19 12:24:50 2024
96,college,64.8569,-147.8028,56.8,79,20,3.44,US,Fri Jul 19 12:22:52 2024
97,al fqih ben calah,32.5009,-6.6906,102.92,11,54,17.27,MA,Fri Jul 19 12:24:50 2024
98,sumbawa besar,-8.5,117.4333,71.69,82,54,3.31,ID,Fri Jul 19 12:24:50 2024
99,atbasar,51.8,68.3333,64.53,74,100,6.96,KZ,Fri Jul 19 12:24:50 2024
100,polyarnyy,69.1989,33.4478,65.17,66,49,12.8,RU,Fri Jul 19 12:24:51 2024
101,dryden,49.7833,-92.7503,70.09,73,40,4.61,CA,Fri Jul 19 12:24:51 2024
102,port alfred,-33.5906,26.891,58.17,74,0,1.99,ZA,Fri Jul 19 12:24:51 2024
103,erenhot,43.6475,111.9767,83.21,33,60,9.75,CN,Fri Jul 19 12:24:51 2024
104,lorengau,-2.0226,147.2712,80.46,87,100,13.18,PG,Fri Jul 19 12:24:51 2024
105,ust-nera,64.5667,143.2,65.12,62,100,1.61,RU,Fri Jul 19 12:21:25 2024
106,yamada,39.4667,141.95,72.88,90,100,4.5,JP,Fri Jul 19 12:24:51 2024
107,holualoa,19.6228,-155.9522,71.44,98,20,0.0,US,Fri Jul 19 12:24:52 2024
108,tazovsky,67.4667,78.7,53.15,60,14,9.48,RU,Fri Jul 19 12:24:52 2024
109,idfu,24.9803,32.8747,105.64,10,84,15.03,EG,Fri Jul 19 12:24:52 2024
110,tobelo,1.7284,128.0095,78.84,85,87,8.88,ID,Fri Jul 19 12:24:52 2024
111,tual,-5.6667,132.75,77.4,82,55,21.41,ID,Fri Jul 19 12:24:52 2024
112,arvayheer,46.2639,102.775,65.82,54,75,5.12,MN,Fri Jul 19 12:24:53 2024
113,san rafael,-34.6177,-68.3301,45.48,47,100,14.54,AR,Fri Jul 19 12:23:19 2024
114,vila franca do campo,37.7167,-25.4333,75.61,61,1,3.11,PT,Fri Jul 19 12:24:53 2024
115,saynshand,44.8824,110.1163,82.51,32,5,7.85,MN,Fri Jul 19 12:24:53 2024
116,iqaluit,63.7506,-68.5145,40.73,93,75,3.44,CA,Fri Jul 19 12:24:53 2024
117,pingliang,35.5392,106.6861,70.88,91,0,3.87,CN,Fri Jul 19 12:24:54 2024
118,hithadhoo,-0.6,73.0833,84.11,69,100,3.65,MV,Fri Jul 19 12:23:09 2024
119,susuman,62.7833,148.1667,55.22,86,99,7.29,RU,Fri Jul 19 12:24:54 2024
120,cuajinicuilapa,16.4667,-98.4167,87.94,55,92,4.21,MX,Fri Jul 19 12:24:54 2024
121,kavieng,-2.5744,150.7967,79.93,86,100,14.52,PG,Fri Jul 19 12:24:55 2024
122,pyt-yakh,60.7499,72.8582,66.09,64,93,7.36,RU,Fri Jul 19 12:24:55 2024
123,hawaiian paradise park,19.5933,-154.9731,69.03,93,0,5.75,US,Fri Jul 19 12:24:55 2024
124,grand falls-windsor,48.9332,-55.6649,82.51,64,90,1.01,CA,Fri Jul 19 12:20:38 2024
125,bageshwar,29.85,79.7667,75.49,92,18,0.38,IN,Fri Jul 19 12:24:55 2024
126,kapuskasing,49.4169,-82.4331,73.49,60,100,13.8,CA,Fri Jul 19 12:24:55 2024
127,yuxi,24.355,102.5422,66.67,98,100,3.78,CN,Fri Jul 19 12:24:55 2024
128,vilyuchinsk,52.9306,158.4028,48.47,90,22,0.69,RU,Fri Jul 19 12:24:56 2024
129,pauini,-7.7136,-66.9764,93.47,30,34,2.86,BR,Fri Jul 19 12:24:56 2024
130,alesund,62.4723,6.1549,68.92,72,0,3.44,NO,Fri Jul 19 12:24:56 2024
131,tommot,58.9564,126.2925,61.09,96,100,5.46,RU,Fri Jul 19 12:24:56 2024
132,pyay,18.8167,95.2167,77.16,97,100,9.6,MM,Fri Jul 19 12:24:57 2024
133,east london,-33.0153,27.9116,59.94,67,0,6.91,ZA,Fri Jul 19 12:24:57 2024
134,nadym,65.5333,72.5167,65.48,59,44,10.8,RU,Fri Jul 19 12:24:10 2024
135,aasiaat,68.7098,-52.8699,40.82,87,50,3.04,GL,Fri Jul 19 12:24:57 2024
136,batang,-6.4846,110.7083,78.21,80,28,7.38,ID,Fri Jul 19 12:24:57 2024
137,ipora,-16.4419,-51.1178,87.93,20,0,6.62,BR,Fri Jul 19 12:24:57 2024
138,kiunga,-6.1219,141.2906,70.14,95,100,4.18,PG,Fri Jul 19 12:24:57 2024
139,anadyr,64.75,177.4833,54.1,87,0,4.47,RU,Fri Jul 19 12:24:58 2024
140,ventspils,57.3894,21.5606,66.13,88,75,9.22,LV,Fri Jul 19 12:24:58 2024
141,fortaleza,-3.7227,-38.5247,86.13,93,40,12.66,BR,Fri Jul 19 12:20:59 2024
142,juan l. lacaze,-34.4333,-57.4167,53.19,80,56,22.08,UY,Fri Jul 19 12:24:58 2024
143,afaahiti,-17.75,-149.2833,75.07,79,40,19.98,PF,Fri Jul 19 12:24:58 2024
144,qaqortoq,60.7167,-46.0333,54.82,62,33,5.86,GL,Fri Jul 19 12:24:58 2024
145,ebon,4.582,168.6964,83.61,76,94,16.69,MH,Fri Jul 19 12:24:59 2024
146,keflavik,64.0049,-22.5624,57.63,67,75,11.5,IS,Fri Jul 19 12:24:59 2024
147,taber,49.8167,-112.1518,73.4,68,8,5.75,CA,Fri Jul 19 12:24:59 2024
148,isafjordur,66.0755,-23.124,53.64,76,20,11.5,IS,Fri Jul 19 12:24:59 2024
149,thompson,55.7435,-97.8558,68.16,68,0,8.05,CA,Fri Jul 19 12:20:04 2024
150,bredasdorp,-34.5322,20.0403,54.73,71,13,16.33,ZA,Fri Jul 19 12:24:59 2024
151,nieuw amsterdam,5.8833,-55.0833,91.42,52,75,6.91,SR,Fri Jul 19 12:24:59 2024
152,santa cruz,-17.8,-63.1667,83.66,47,0,18.41,BO,Fri Jul 19 12:21:12 2024
153,bandarbeyla,9.4942,50.8122,79.77,72,61,32.77,SO,Fri Jul 19 12:25:00 2024
154,uturoa,-16.7333,-151.4333,77.31,72,10,12.1,PF,Fri Jul 19 12:25:00 2024
155,chios,38.3678,26.1358,94.86,31,0,11.5,GR,Fri Jul 19 12:25:00 2024
156,lautoka,-17.6167,177.4667,80.46,69,75,12.66,FJ,Fri Jul 19 12:25:00 2024
157,dudinka,69.4058,86.1778,47.66,59,43,16.13,RU,Fri Jul 19 12:25:00 2024
158,puerto ayora,-0.7393,-90.3518,76.96,92,81,5.99,EC,Fri Jul 19 12:23:20 2024
159,boguchany,58.3814,97.4531,67.48,83,100,2.24,RU,Fri Jul 19 12:25:01 2024
160,esil,51.9556,66.4042,68.94,64,96,6.78,KZ,Fri Jul 19 12:25:01 2024
161,americus,32.0724,-84.2327,83.79,83,100,0.0,US,Fri Jul 19 12:23:12 2024
162,sao felix do xingu,-6.6447,-51.995,95.58,27,68,4.34,BR,Fri Jul 19 12:25:01 2024
163,katsuren-haebaru,26.3369,127.8719,86.4,85,20,8.05,JP,Fri Jul 19 12:25:01 2024
164,al ghayzah,16.2079,52.176,82.53,78,100,13.27,YE,Fri Jul 19 12:25:02 2024
165,san remo,43.8182,7.7612,88.3,74,74,8.01,IT,Fri Jul 19 12:25:02 2024
166,karratha,-20.7377,116.8463,70.43,52,77,12.8,AU,Fri Jul 19 12:25:02 2024
167,nova vicosa,-17.8919,-39.3719,78.24,58,36,7.45,BR,Fri Jul 19 12:25:02 2024
168,cannonvale,-20.2833,148.7,60.19,75,100,4.23,AU,Fri Jul 19 12:25:02 2024
169,bikenibeu village,1.3673,173.1241,82.36,83,75,6.91,KI,Fri Jul 19 12:25:02 2024
170,souillac,-20.5167,57.5167,68.38,88,20,3.44,MU,Fri Jul 19 12:25:03 2024
171,kourou,5.1552,-52.6478,80.65,70,96,3.87,GF,Fri Jul 19 12:25:03 2024
172,sandnessjoen,66.0217,12.6316,59.52,94,75,5.75,NO,Fri Jul 19 12:25:03 2024
173,puerto armuelles,8.2833,-82.8667,82.38,87,100,1.01,PA,Fri Jul 19 12:25:03 2024
174,chibougamau,49.9168,-74.3659,69.42,52,75,12.66,CA,Fri Jul 19 12:25:03 2024
175,bargaal,11.2864,51.0773,87.57,56,100,12.12,SO,Fri Jul 19 12:25:03 2024
176,turriff,57.5384,-2.4593,71.74,78,100,16.15,GB,Fri Jul 19 12:25:04 2024
177,buri,-23.7975,-48.5928,74.05,42,0,3.11,BR,Fri Jul 19 12:25:04 2024
178,ilulissat,69.2167,-51.1,53.62,54,0,4.61,GL,Fri Jul 19 12:25:04 2024
179,vilyuysk,63.7553,121.6247,53.47,64,100,4.63,RU,Fri Jul 19 12:25:04 2024
180,masuguru,-11.3667,38.4167,79.61,34,11,2.3,TZ,Fri Jul 19 12:25:04 2024
181,sitka,57.0531,-135.33,60.69,88,100,6.91,US,Fri Jul 19 12:20:59 2024
182,boa vista,2.8197,-60.6733,84.18,70,75,3.44,BR,Fri Jul 19 12:25:05 2024
183,paita,-5.0892,-81.1144,69.17,70,86,10.13,PE,Fri Jul 19 12:25:05 2024
184,severo-yeniseyskiy,60.3725,93.0408,61.3,96,100,2.89,RU,Fri Jul 19 12:25:05 2024
185,dayr hafir,36.1569,37.7078,99.16,21,0,21.97,SY,Fri Jul 19 12:25:05 2024
186,bardai,11.65,7.2333,80.04,70,100,11.27,NG,Fri Jul 19 12:25:05 2024
187,tazacorte,28.629,-17.9293,77.97,69,0,12.66,ES,Fri Jul 19 12:23:28 2024
188,kajuru,10.3192,7.6892,70.97,94,100,4.18,NG,Fri Jul 19 12:25:06 2024
189,nova sintra,14.8667,-24.7167,77.04,84,46,8.68,CV,Fri Jul 19 12:25:06 2024
190,broken hill,-31.95,141.4333,48.06,71,49,28.99,AU,Fri Jul 19 12:24:10 2024
191,ndioum,16.5129,-14.6471,103.89,35,1,1.61,SN,Fri Jul 19 12:25:06 2024
192,la passe,45.5549,-0.8967,86.23,64,1,11.12,FR,Fri Jul 19 12:25:06 2024
193,alofi,-19.0595,-169.9187,71.49,88,100,2.3,NU,Fri Jul 19 12:25:06 2024
194,petropavlovsk-kamchatsky,53.0452,158.6483,46.99,100,40,2.24,RU,Fri Jul 19 12:25:07 2024
195,tan-tan,28.438,-11.1032,96.75,34,22,10.36,MA,Fri Jul 19 12:25:07 2024
196,ola,59.5833,151.2833,52.07,89,100,1.32,RU,Fri Jul 19 12:25:07 2024
197,kodiak,57.79,-152.4072,51.31,87,100,4.61,US,Fri Jul 19 12:25:07 2024
198,lesogorsk,56.0458,99.5136,64.69,94,98,0.78,RU,Fri Jul 19 12:25:07 2024
199,hammerfest,70.6634,23.6821,66.65,72,20,8.05,NO,Fri Jul 19 12:25:07 2024
200,gul'kevichi,45.3538,40.6946,99.25,14,100,8.57,RU,Fri Jul 19 12:25:07 2024
201,karagay,58.2667,54.9368,70.3,73,70,4.23,RU,Fri Jul 19 12:25:08 2024
202,hobyo,5.3505,48.5268,77.02,78,86,25.39,SO,Fri Jul 19 12:25:08 2024
203,lompoc,34.6391,-120.4579,71.85,90,40,0.0,US,Fri Jul 19 12:25:08 2024
204,zhaotong,27.3167,103.7167,67.73,88,100,4.18,CN,Fri Jul 19 12:25:08 2024
205,usinsk,65.9939,57.5281,61.48,57,11,15.84,RU,Fri Jul 19 12:25:08 2024
206,okhotsk,59.3833,143.3,53.26,86,100,9.89,RU,Fri Jul 19 12:23:21 2024
207,nizhneangarsk,55.7833,109.55,54.93,85,64,1.61,RU,Fri Jul 19 12:25:08 2024
208,sao paulo de olivenca,-3.3783,-68.8725,92.23,43,20,2.15,BR,Fri Jul 19 12:25:09 2024
209,novyy urengoy,66.0833,76.6333,63.5,53,49,9.75,RU,Fri Jul 19 12:25:09 2024
210,kargasok,59.0556,80.8572,65.32,97,100,11.45,RU,Fri Jul 19 12:25:09 2024
211,kerikeri,-35.2268,173.9474,55.49,98,100,7.76,NZ,Fri Jul 19 12:25:09 2024
212,hasaki,35.7333,140.8333,81.0,90,100,8.88,JP,Fri Jul 19 12:25:09 2024
213,medina,24.4686,39.6142,109.83,6,0,11.5,SA,Fri Jul 19 12:25:09 2024
214,mangrol,21.1167,70.1167,82.9,86,91,13.2,IN,Fri Jul 19 12:25:10 2024
215,alotau,-10.3069,150.4462,69.08,83,88,3.38,PG,Fri Jul 19 12:25:10 2024
216,axim,4.8699,-2.2405,78.8,80,30,10.67,GH,Fri Jul 19 12:25:10 2024
217,port macquarie,-31.4333,152.9167,46.08,91,100,1.99,AU,Fri Jul 19 12:25:10 2024
218,srivardhan,18.0333,73.0167,79.43,90,100,19.37,IN,Fri Jul 19 12:25:10 2024
219,barreiras,-12.1528,-44.99,93.9,19,1,3.31,BR,Fri Jul 19 12:22:30 2024
220,codrington,-38.2667,141.9667,48.61,92,99,13.4,AU,Fri Jul 19 12:24:49 2024
221,mermoz boabab,14.7065,-17.4758,88.36,74,40,11.5,SN,Fri Jul 19 12:25:11 2024
222,khovd,48.0056,91.6419,68.27,52,100,3.31,MN,Fri Jul 19 12:24:19 2024
223,arkhangel'sk,64.5401,40.5433,71.71,56,20,8.95,RU,Fri Jul 19 12:25:11 2024
224,khandyga,62.6667,135.6,62.98,97,100,2.8,RU,Fri Jul 19 12:25:11 2024
225,dawei,14.0833,98.2,77.52,94,99,4.12,MM,Fri Jul 19 12:25:11 2024
226,tateyama,34.9833,139.8667,83.1,94,100,19.06,JP,Fri Jul 19 12:25:12 2024
227,sakakah,29.9697,40.2064,103.57,11,0,14.92,SA,Fri Jul 19 12:25:12 2024
228,nishinoomote,30.7333,131.0,82.78,88,11,9.55,JP,Fri Jul 19 12:25:12 2024
229,crane,31.3974,-102.3501,85.26,32,55,8.34,US,Fri Jul 19 12:25:12 2024
230,canavieiras,-15.675,-38.9472,79.97,57,25,7.72,BR,Fri Jul 19 12:21:21 2024
231,nadigaon,26.1167,79.0333,98.6,45,100,2.01,IN,Fri Jul 19 12:25:13 2024
232,syriam,16.7722,96.2378,78.91,94,75,2.3,MM,Fri Jul 19 12:25:13 2024
233,la ronge,55.1001,-105.2842,77.25,69,100,2.3,CA,Fri Jul 19 12:25:13 2024
234,constantia,44.1833,28.65,92.08,66,21,8.9,RO,Fri Jul 19 12:22:03 2024
235,kutum,14.2,24.6667,87.33,40,75,12.19,SD,Fri Jul 19 12:25:13 2024
236,tympaki,35.0729,24.7685,92.1,34,0,18.99,GR,Fri Jul 19 12:25:13 2024
237,inhambane,-23.865,35.3833,72.43,74,0,11.01,MZ,Fri Jul 19 12:25:13 2024
238,letterkenny,54.95,-7.7333,67.89,60,100,10.89,IE,Fri Jul 19 12:25:14 2024
239,severnoye,56.3491,78.3619,58.35,92,99,5.88,RU,Fri Jul 19 12:25:14 2024
240,christchurch,-43.5333,172.6333,51.94,95,75,9.22,NZ,Fri Jul 19 12:24:10 2024
241,illizi,26.4833,8.4667,105.6,6,0,19.69,DZ,Fri Jul 19 12:25:14 2024
242,pathein,16.7833,94.7333,78.42,92,100,9.4,MM,Fri Jul 19 12:25:14 2024
243,tolanaro,-25.0319,46.9987,71.67,83,0,16.11,MG,Fri Jul 19 12:25:15 2024
244,serchhip,23.3,92.8333,75.81,98,100,1.95,IN,Fri Jul 19 12:25:15 2024
245,ta`u,-14.2336,-169.5144,79.18,70,55,17.94,AS,Fri Jul 19 12:25:15 2024
246,taltal,-25.4,-70.4833,59.4,72,100,5.01,CL,Fri Jul 19 12:25:15 2024
247,barmer,25.75,71.3833,87.33,69,87,12.8,IN,Fri Jul 19 12:25:15 2024
248,saldanha,-33.0117,17.9442,55.45,82,10,11.18,ZA,Fri Jul 19 12:25:15 2024
249,klyuchi,52.2667,79.1667,70.0,70,56,2.73,RU,Fri Jul 19 12:25:15 2024
250,kushiro,42.975,144.3747,68.95,100,100,16.11,JP,Fri Jul 19 12:25:16 2024
251,goundam,16.4145,-3.6708,106.32,20,75,10.71,ML,Fri Jul 19 12:25:16 2024
252,kahna nau,31.3692,74.3653,95.04,59,40,4.61,PK,Fri Jul 19 12:25:16 2024
253,north las vegas,36.1989,-115.1175,99.66,25,0,5.75,US,Fri Jul 19 12:23:57 2024
254,machico,32.7,-16.7667,85.01,79,20,16.11,PT,Fri Jul 19 12:25:16 2024
255,bang saphan,11.2126,99.5117,78.75,85,100,3.24,TH,Fri Jul 19 12:25:16 2024
256,georgetown,5.4112,100.3354,84.15,86,20,3.44,MY,Fri Jul 19 12:25:17 2024
257,prado,-17.3411,-39.2208,79.23,57,7,9.62,BR,Fri Jul 19 12:25:17 2024
258,saint-philippe,-21.3585,55.7679,67.59,78,37,6.49,RE,Fri Jul 19 12:25:17 2024
259,point pedro,9.8167,80.2333,84.2,76,100,16.17,LK,Fri Jul 19 12:25:17 2024
260,natal,-5.795,-35.2094,84.85,58,40,21.85,BR,Fri Jul 19 12:23:13 2024
261,rongelap,11.1635,166.8941,82.58,78,51,20.18,MH,Fri Jul 19 12:25:17 2024
262,antsiranana,-12.2787,49.2917,73.42,67,95,15.26,MG,Fri Jul 19 12:25:18 2024
263,opuwo,-18.0607,13.84,81.77,10,4,5.44,NA,Fri Jul 19 12:25:18 2024
264,pacific grove,36.6177,-121.9166,63.21,92,100,5.01,US,Fri Jul 19 12:25:18 2024
265,hovd,48.0056,91.6419,68.27,52,100,3.31,MN,Fri Jul 19 12:25:18 2024
266,muroto-misakicho,33.2833,134.15,79.14,95,38,8.41,JP,Fri Jul 19 12:25:18 2024
267,buala,-8.145,159.5921,78.89,86,40,7.02,SB,Fri Jul 19 12:25:18 2024
268,minas de marcona,-15.2119,-75.1103,60.06,59,0,7.7,PE,Fri Jul 19 12:25:18 2024
269,shingu,33.7333,135.9833,79.27,92,90,4.65,JP,Fri Jul 19 12:25:19 2024
270,isla mujeres,21.2311,-86.731,87.85,74,70,8.61,MX,Fri Jul 19 12:25:19 2024
271,san patricio,28.017,-97.5169,91.9,53,50,1.25,US,Fri Jul 19 12:25:19 2024
272,nar'yan-mar,67.6713,53.087,49.32,66,0,14.97,RU,Fri Jul 19 12:25:19 2024
273,jiexiu,37.0244,111.9125,78.69,64,0,4.63,CN,Fri Jul 19 12:25:19 2024
274,muang phonsavan,19.45,103.2167,68.67,100,100,1.77,LA,Fri Jul 19 12:25:19 2024
275,box elder,41.5005,-112.8764,80.26,54,86,6.42,US,Fri Jul 19 12:25:19 2024
276,saipan,15.1355,145.701,84.9,74,40,11.5,MP,Fri Jul 19 12:25:20 2024
277,rosarno,38.4841,15.979,89.76,61,0,6.85,IT,Fri Jul 19 12:25:20 2024
278,boke,10.9409,-14.2967,76.26,96,100,6.22,GN,Fri Jul 19 12:25:20 2024
279,son tay,21.1378,105.505,82.33,94,96,4.76,VN,Fri Jul 19 12:25:20 2024
280,luderitz,-26.6481,15.1594,59.65,72,0,21.41,NA,Fri Jul 19 12:23:59 2024
281,aginskoye,51.1,114.53,61.84,72,65,4.72,RU,Fri Jul 19 12:25:20 2024
282,bodaybo,57.8506,114.1933,66.9,80,88,2.64,RU,Fri Jul 19 12:25:21 2024
283,berezovka,53.7214,25.4993,74.64,52,9,7.25,BY,Fri Jul 19 12:25:21 2024
284,jacksonville,30.3322,-81.6556,92.05,64,75,6.91,US,Fri Jul 19 12:20:39 2024
285,jumla,29.2747,82.1838,61.03,95,68,1.32,NP,Fri Jul 19 12:25:21 2024
286,enewetak,11.3474,162.3373,83.59,79,99,19.35,MH,Fri Jul 19 12:25:21 2024
287,pospelikha,51.95,81.7667,69.87,71,92,4.7,RU,Fri Jul 19 12:21:11 2024
288,bay harbor,30.1471,-85.6146,89.67,75,40,9.22,US,Fri Jul 19 12:25:21 2024
289,emerald,-23.5333,148.1667,50.36,52,2,5.03,AU,Fri Jul 19 12:25:22 2024
290,chemolgan,43.1897,76.5292,64.06,87,100,6.04,KZ,Fri Jul 19 12:25:22 2024
291,lichinga,-13.3128,35.2406,68.09,52,40,6.91,MZ,Fri Jul 19 12:25:22 2024
292,malanje,-9.5402,16.341,86.4,10,4,3.02,AO,Fri Jul 19 12:25:22 2024
293,alo,6.5486,4.2686,75.61,91,100,8.25,NG,Fri Jul 19 12:25:22 2024
294,kambarka,56.2694,54.2062,70.16,71,81,1.45,RU,Fri Jul 19 12:25:22 2024
295,vila do maio,15.1333,-23.2167,84.99,83,46,6.85,CV,Fri Jul 19 12:25:23 2024
296,trairi,-3.2778,-39.2689,87.06,49,30,12.57,BR,Fri Jul 19 12:21:24 2024
297,laojunmiao,39.8333,97.7333,71.04,41,81,21.54,CN,Fri Jul 19 12:25:23 2024
298,tofol,5.3248,163.0078,83.75,73,15,17.54,FM,Fri Jul 19 12:25:23 2024
299,yuzhno-kurilsk,44.0306,145.8556,59.85,99,100,8.14,RU,Fri Jul 19 12:25:23 2024
300,mar del plata,-38.0023,-57.5575,48.94,71,75,17.27,AR,Fri Jul 19 12:25:23 2024
301,ristiina,61.5058,27.2464,64.51,84,90,3.89,FI,Fri Jul 19 12:25:24 2024
302,kenora,49.8167,-94.4337,67.17,88,100,9.22,CA,Fri Jul 19 12:21:32 2024
303,beau vallon,-20.4189,57.6953,69.22,88,20,3.44,MU,Fri Jul 19 12:24:23 2024
304,rio grande,-32.035,-52.0986,64.51,70,0,1.79,BR,Fri Jul 19 12:20:45 2024
305,cumnock,55.4544,-4.2664,68.49,88,100,10.98,GB,Fri Jul 19 12:25:24 2024
306,dongola,19.1667,30.4833,109.78,8,87,13.11,SD,Fri Jul 19 12:25:24 2024
307,arraial do cabo,-22.9661,-42.0278,75.16,73,20,11.5,BR,Fri Jul 19 12:25:24 2024
308,vadso,70.0744,29.7487,59.88,87,75,17.27,NO,Fri Jul 19 12:25:25 2024
309,colonia,50.9333,6.95,86.97,43,0,2.3,DE,Fri Jul 19 12:25:25 2024
310,thomasville,35.8826,-80.082,81.75,81,89,1.99,US,Fri Jul 19 12:25:25 2024
311,mikun',62.3547,50.0771,66.4,88,18,5.19,RU,Fri Jul 19 12:25:25 2024
312,antalaha,-14.9003,50.2788,71.1,73,100,11.92,MG,Fri Jul 19 12:25:25 2024
313,manaure,11.7751,-72.4445,88.59,57,100,7.25,CO,Fri Jul 19 12:25:25 2024
314,amalapuram,16.5833,82.0167,77.14,92,100,10.16,IN,Fri Jul 19 12:25:25 2024
315,drummondville,45.8834,-72.4824,75.04,60,3,1.99,CA,Fri Jul 19 12:22:59 2024
316,angra do heroismo,38.65,-27.2167,79.41,78,20,11.01,PT,Fri Jul 19 12:25:26 2024
317,leava,-14.3,-178.1667,81.07,71,48,12.03,WF,Fri Jul 19 12:25:26 2024
318,thulamahashi,-24.7246,31.1994,75.7,44,0,3.53,ZA,Fri Jul 19 12:25:26 2024
319,constitucion,-35.3333,-72.4167,49.64,58,100,3.27,CL,Fri Jul 19 12:25:27 2024
320,as sulayyil,20.4607,45.5779,107.85,9,100,5.59,SA,Fri Jul 19 12:25:27 2024
321,madimba,-10.4,40.3333,75.81,66,31,14.32,TZ,Fri Jul 19 12:25:27 2024
322,pisco,-13.7,-76.2167,64.02,77,100,5.75,PE,Fri Jul 19 12:25:27 2024
323,tuy hoa,13.0833,109.3,79.23,82,84,13.42,VN,Fri Jul 19 12:25:27 2024
324,terrace,54.5163,-128.6035,67.91,77,75,12.66,CA,Fri Jul 19 12:25:27 2024
325,preobrazheniye,42.9019,133.9064,68.74,84,58,5.14,RU,Fri Jul 19 12:25:28 2024
326,salalah,17.0151,54.0924,80.69,94,100,9.22,OM,Fri Jul 19 12:25:28 2024
327,turbat,26.0023,63.044,91.89,58,98,10.92,PK,Fri Jul 19 12:25:28 2024
328,lae,-6.7221,146.9847,73.63,91,99,4.27,PG,Fri Jul 19 12:25:28 2024
329,buinsk,54.95,48.2833,74.17,54,100,4.5,RU,Fri Jul 19 12:25:28 2024
330,tyuratam,45.6507,63.3156,81.82,35,43,17.2,KZ,Fri Jul 19 12:25:28 2024
331,sittwe,20.15,92.9,81.93,87,100,17.98,MM,Fri Jul 19 12:25:29 2024
332,cam ranh,11.9214,109.1591,80.56,89,40,3.44,VN,Fri Jul 19 12:25:29 2024
333,columbia city,41.1573,-85.4883,75.24,73,0,1.01,US,Fri Jul 19 12:22:34 2024
334,banda aceh,5.5577,95.3222,82.18,81,70,9.64,ID,Fri Jul 19 12:25:29 2024
335,dwarka,22.2394,68.9678,84.04,86,63,14.5,IN,Fri Jul 19 12:25:29 2024
336,orchard homes,46.8633,-114.0484,80.15,26,0,0.67,US,Fri Jul 19 12:24:14 2024
337,bandar-e genaveh,29.5791,50.517,95.86,49,0,6.11,IR,Fri Jul 19 12:25:30 2024
338,yugorsk,61.3133,63.3319,66.42,76,99,4.07,RU,Fri Jul 19 12:25:30 2024
339,chiras,35.4167,65.9823,55.27,52,0,4.41,AF,Fri Jul 19 12:25:30 2024
340,at-bashi,41.1702,75.8106,62.28,43,100,4.65,KG,Fri Jul 19 12:25:30 2024
341,sinabang,2.4803,96.3801,80.82,79,95,2.98,ID,Fri Jul 19 12:25:30 2024
342,conception bay south,47.4999,-52.9981,72.55,89,100,13.8,CA,Fri Jul 19 12:25:30 2024
343,bachajon,17.0385,-92.1891,82.6,55,60,2.62,MX,Fri Jul 19 12:25:31 2024
344,port douglas,-16.4833,145.4667,60.82,79,82,4.5,AU,Fri Jul 19 12:25:31 2024
345,whitehorse,60.7161,-135.0538,53.1,57,40,3.44,CA,Fri Jul 19 12:25:31 2024
346,freetown,8.484,-13.2299,76.71,94,75,10.36,SL,Fri Jul 19 12:25:31 2024
347,sinan,34.8262,126.1086,75.31,97,99,8.16,KR,Fri Jul 19 12:25:31 2024
348,kingston,17.997,-76.7936,91.17,62,20,8.05,JM,Fri Jul 19 12:20:22 2024
349,mpanda,-6.3655,31.0409,77.47,29,16,5.84,TZ,Fri Jul 19 12:25:32 2024
350,greenland,43.0362,-70.8328,82.2,54,20,5.75,US,Fri Jul 19 12:25:32 2024
351,yuanping,38.7153,112.7575,69.01,77,84,3.24,CN,Fri Jul 19 12:25:32 2024
352,benguela,-12.5763,13.4055,71.26,79,43,6.62,AO,Fri Jul 19 12:25:32 2024
353,st. john's,47.5649,-52.7093,72.79,90,100,23.02,CA,Fri Jul 19 12:21:08 2024
354,collingwood,44.4834,-80.2164,73.62,60,8,8.59,CA,Fri Jul 19 12:25:32 2024
355,bathsheba,13.2167,-59.5167,88.41,74,75,21.85,BB,Fri Jul 19 12:25:32 2024
356,baardheere,2.3446,42.2764,86.7,40,85,18.57,SO,Fri Jul 19 12:25:33 2024
357,eydhafushi,5.1033,73.0708,83.5,79,97,11.74,MV,Fri Jul 19 12:25:33 2024
358,la'ie,21.6477,-157.9253,76.1,79,10,1.99,US,Fri Jul 19 12:23:51 2024
359,al hazm,16.1641,44.7769,91.33,27,99,15.01,YE,Fri Jul 19 12:25:33 2024
360,weno,7.4515,151.8468,82.35,65,75,9.22,FM,Fri Jul 19 12:25:33 2024
361,oguta,5.7089,6.8103,74.66,93,100,6.06,NG,Fri Jul 19 12:25:33 2024
362,nalut,30.3333,10.85,99.91,8,0,15.21,LY,Fri Jul 19 12:25:33 2024
363,egilsstadir,65.2653,-14.3948,57.11,54,75,11.5,IS,Fri Jul 19 12:25:34 2024
364,berezovyy,51.6667,135.7,61.25,99,96,1.72,RU,Fri Jul 19 12:25:34 2024
365,colachel,8.1667,77.25,79.84,93,100,14.81,IN,Fri Jul 19 12:25:34 2024
366,morropon,-5.1822,-79.9689,79.77,50,100,3.96,PE,Fri Jul 19 12:25:34 2024
367,mana,5.6592,-53.7767,83.03,65,59,7.11,GF,Fri Jul 19 12:25:34 2024
368,buka,40.8108,69.1986,85.84,25,74,6.78,UZ,Fri Jul 19 12:25:35 2024
369,lensk,60.7253,114.9278,57.47,90,93,4.9,RU,Fri Jul 19 12:25:35 2024
370,obsharovka,53.125,48.8531,80.24,35,77,7.36,RU,Fri Jul 19 12:25:35 2024
371,warman,52.3168,-106.5679,78.1,73,40,2.3,CA,Fri Jul 19 12:25:35 2024
372,solleftea,63.1667,17.2667,71.46,58,68,9.75,SE,Fri Jul 19 12:25:35 2024
373,nuku'alofa,-21.1333,-175.2,73.74,94,75,9.22,TO,Fri Jul 19 12:25:35 2024
374,itamaraca,-7.7478,-34.8256,84.25,63,18,13.27,BR,Fri Jul 19 12:25:36 2024
375,vega de alatorre,20.0333,-96.6333,82.44,78,100,6.49,MX,Fri Jul 19 12:25:36 2024
376,dom pedro,-4.4833,-44.45,93.78,28,2,5.64,BR,Fri Jul 19 12:24:59 2024
377,kondoa,-4.9,35.7833,69.49,47,26,4.9,TZ,Fri Jul 19 12:25:36 2024
378,es castell,39.8795,4.2854,88.48,33,0,8.05,ES,Fri Jul 19 12:25:36 2024
379,lobujya,27.95,86.8167,40.84,93,99,3.29,NP,Fri Jul 19 12:25:36 2024
380,oranjemund,-28.55,16.4333,57.97,76,0,12.17,NA,Fri Jul 19 12:25:36 2024
381,coruripe,-10.1256,-36.1756,77.23,76,61,10.16,BR,Fri Jul 19 12:25:37 2024
382,gamay,12.3854,125.2979,75.58,96,69,4.61,PH,Fri Jul 19 12:25:37 2024
383,al qadarif,14.0349,35.3834,87.4,51,68,5.93,SD,Fri Jul 19 12:25:37 2024
384,salekhard,66.53,66.6019,57.04,57,89,15.39,RU,Fri Jul 19 12:25:37 2024
385,les avirons,-21.2418,55.3394,64.49,73,0,5.75,RE,Fri Jul 19 12:25:37 2024
386,huntsville,34.7304,-86.5861,75.61,92,100,10.36,US,Fri Jul 19 12:20:59 2024
387,new kingman-butler,35.265,-114.0323,94.82,22,0,10.36,US,Fri Jul 19 12:25:38 2024
388,utrik,11.2278,169.8474,81.75,78,68,21.85,MH,Fri Jul 19 12:24:05 2024
389,vera,-29.4593,-60.2126,76.08,58,65,5.7,AR,Fri Jul 19 12:25:38 2024
390,ash shafa,21.0694,40.3119,75.58,18,93,10.27,SA,Fri Jul 19 12:25:38 2024
391,acapulco de juarez,16.8634,-99.8901,89.42,62,0,0.0,MX,Fri Jul 19 12:25:38 2024
392,cascavel,-24.9558,-53.4553,76.6,38,0,9.22,BR,Fri Jul 19 12:22:20 2024
393,saint-martin-des-champs,48.5833,-3.8333,72.63,73,75,6.91,FR,Fri Jul 19 12:25:38 2024
394,alta,69.9689,23.2717,65.46,82,40,5.75,NO,Fri Jul 19 12:25:39 2024
395,kailua-kona,19.6406,-155.9956,75.16,73,20,0.0,US,Fri Jul 19 12:25:17 2024
396,brookings,44.3114,-96.7984,70.38,81,0,8.05,US,Fri Jul 19 12:21:33 2024
397,geraldton,-28.7667,114.6,48.61,87,20,10.36,AU,Fri Jul 19 12:25:39 2024
398,shira,54.4911,89.9531,63.99,79,23,5.59,RU,Fri Jul 19 12:25:39 2024
399,san angelo,31.4638,-100.437,86.95,61,0,6.91,US,Fri Jul 19 12:25:39 2024
400,mahina,-17.5065,-149.489,76.77,78,75,14.97,PF,Fri Jul 19 12:25:39 2024
401,aioun,16.6614,-9.6149,101.68,30,1,11.61,MR,Fri Jul 19 12:25:40 2024
402,lensahn,54.2333,10.8833,77.11,70,65,7.56,DE,Fri Jul 19 12:25:40 2024
403,happy valley-goose bay,53.3168,-60.3315,62.91,77,75,10.36,CA,Fri Jul 19 12:25:40 2024
404,villamontes,-21.25,-63.5,80.04,41,0,0.0,BO,Fri Jul 19 12:25:40 2024
405,quelimane,-17.8786,36.8883,75.15,78,20,10.36,MZ,Fri Jul 19 12:25:40 2024
406,targu jiu,45.05,23.2833,78.94,61,77,5.68,RO,Fri Jul 19 12:25:41 2024
407,tidjikja,18.5564,-11.4271,102.33,20,0,11.77,MR,Fri Jul 19 12:25:41 2024
408,boyolangu,-8.1181,111.8935,72.07,95,77,3.71,ID,Fri Jul 19 12:25:41 2024
409,roma,43.2128,-75.4557,76.57,57,0,1.99,US,Fri Jul 19 12:25:41 2024
410,kerouane,9.2667,-9.0167,81.55,76,98,3.96,GN,Fri Jul 19 12:25:41 2024
411,bahadurganj,26.2667,87.8167,87.35,75,66,6.44,IN,Fri Jul 19 12:25:41 2024
412,cadale,2.7603,46.3222,77.22,81,74,19.86,SO,Fri Jul 19 12:25:41 2024
413,ponta delgada,37.7333,-25.6667,75.92,73,40,14.97,PT,Fri Jul 19 12:25:42 2024
414,kalevala,65.2,31.1667,55.94,98,100,8.14,RU,Fri Jul 19 12:25:42 2024
415,gornopravdinsk,60.05,69.9,62.55,76,99,6.2,RU,Fri Jul 19 12:25:42 2024
416,zyrya,40.3661,50.2917,80.69,67,23,10.74,AZ,Fri Jul 19 12:25:42 2024
417,hami,42.8,93.45,81.3,39,100,16.4,CN,Fri Jul 19 12:25:42 2024
418,isangel,-19.55,169.2667,67.86,70,0,12.06,VU,Fri Jul 19 12:25:42 2024
419,rawson,-43.3002,-65.1023,46.31,39,0,12.86,AR,Fri Jul 19 12:25:43 2024
420,khash,28.2211,61.2158,88.56,15,93,17.18,IR,Fri Jul 19 12:25:43 2024
421,tarko-sale,64.9225,77.785,65.35,71,55,10.83,RU,Fri Jul 19 12:25:43 2024
422,daru,-9.0763,143.2092,73.87,82,100,12.97,PG,Fri Jul 19 12:25:43 2024
423,mitu,1.1983,-70.1733,83.44,59,92,2.04,CO,Fri Jul 19 12:23:00 2024
424,fale old settlement,-9.3852,-171.2468,82.36,77,65,22.57,TK,Fri Jul 19 12:25:43 2024
425,matthew town,20.95,-73.6667,86.27,72,6,21.34,BS,Fri Jul 19 12:25:44 2024
426,portland,45.5234,-122.6762,72.36,72,20,4.61,US,Fri Jul 19 12:24:19 2024
427,palikir - national government center,6.9248,158.1611,79.54,94,75,4.61,FM,Fri Jul 19 12:25:44 2024
428,valparaiso,-33.0393,-71.6273,57.15,75,75,5.75,CL,Fri Jul 19 12:22:54 2024
429,klaksvik,62.2266,-6.589,50.92,99,100,15.79,FO,Fri Jul 19 12:25:44 2024
430,burang,30.25,81.1667,52.63,79,80,5.03,CN,Fri Jul 19 12:25:44 2024
431,bafq,31.6128,55.4107,98.98,12,0,20.02,IR,Fri Jul 19 12:25:45 2024
432,turpan,42.9333,89.1667,86.41,37,74,9.62,CN,Fri Jul 19 12:25:45 2024
433,westport,41.1415,-73.3579,81.21,55,0,3.44,US,Fri Jul 19 12:23:18 2024
434,idri,27.5,13.2667,101.39,13,0,8.48,LY,Fri Jul 19 12:25:45 2024
435,hailar,49.2,119.7,62.83,83,32,4.45,CN,Fri Jul 19 12:25:45 2024
436,dadukou,26.5479,101.7054,78.24,75,100,2.89,CN,Fri Jul 19 12:25:45 2024
437,ugoofaaru,5.6667,73.0,83.59,78,92,13.04,MV,Fri Jul 19 12:25:46 2024
438,sabang,5.8933,95.3214,84.9,78,74,12.55,ID,Fri Jul 19 12:25:46 2024
439,kodinsk,58.6881,99.1844,69.98,74,100,2.82,RU,Fri Jul 19 12:25:46 2024
440,skovorodino,53.9833,123.9167,59.54,97,92,3.56,RU,Fri Jul 19 12:25:46 2024
441,mil'kovo,55.6078,37.7956,74.62,61,59,3.74,RU,Fri Jul 19 12:25:46 2024
442,cockburn town,21.4612,-71.1419,82.83,84,4,20.27,TC,Fri Jul 19 12:25:46 2024
443,chonchi,-42.6128,-73.8092,50.13,74,50,5.35,CL,Fri Jul 19 12:25:47 2024
444,banikoara,11.2985,2.4386,89.2,54,90,7.11,BJ,Fri Jul 19 12:25:47 2024
445,marka,1.7159,44.7717,76.24,83,81,18.7,SO,Fri Jul 19 12:25:47 2024
446,camrose,53.0168,-112.8353,72.93,58,8,1.43,CA,Fri Jul 19 12:25:47 2024
447,carauari,-4.8828,-66.8958,94.48,32,26,2.57,BR,Fri Jul 19 12:25:47 2024
448,gebeit,21.0667,36.3167,99.9,13,43,3.78,SD,Fri Jul 19 12:25:47 2024
449,sungai penuh,-2.0833,101.3833,65.89,97,88,4.81,ID,Fri Jul 19 12:25:48 2024
450,ujae,8.9322,165.7642,82.74,80,70,16.04,MH,Fri Jul 19 12:25:48 2024
451,huarmey,-10.0681,-78.1522,66.74,70,59,8.43,PE,Fri Jul 19 12:25:48 2024
452,pecos,31.4229,-103.4932,84.29,45,0,8.05,US,Fri Jul 19 12:25:48 2024
453,junin de los andes,-39.9504,-71.0694,37.8,48,1,8.7,AR,Fri Jul 19 12:25:48 2024
454,hadibu,12.65,54.0333,79.12,80,68,22.7,YE,Fri Jul 19 12:25:21 2024
455,pasni,25.2631,63.471,83.28,89,35,6.87,PK,Fri Jul 19 12:25:49 2024
456,usogorsk,63.4106,48.6872,68.99,62,87,5.21,RU,Fri Jul 19 12:25:49 2024
457,shimoda,34.6667,138.95,81.1,93,99,14.03,JP,Fri Jul 19 12:25:49 2024
458,sarmiento,-45.5882,-69.07,37.54,58,1,5.26,AR,Fri Jul 19 12:25:49 2024
459,twon-brass,4.3151,6.2418,76.95,87,100,13.49,NG,Fri Jul 19 12:25:49 2024
460,namibe,-15.1961,12.1522,65.57,77,59,6.46,AO,Fri Jul 19 12:25:49 2024
461,baffa,34.4378,73.2194,79.75,54,36,5.88,PK,Fri Jul 19 12:25:49 2024
462,newman,37.3138,-121.0208,84.24,49,0,4.0,US,Fri Jul 19 12:25:50 2024
463,beichengqu,40.4394,113.1536,66.34,81,100,0.74,CN,Fri Jul 19 12:25:50 2024
464,jayapura,-2.5333,140.7,74.59,93,45,5.26,ID,Fri Jul 19 12:25:50 2024
465,trail,49.0998,-117.7022,85.98,36,0,1.36,CA,Fri Jul 19 12:25:50 2024
466,dhulia,20.9,74.7833,81.39,78,100,11.59,IN,Fri Jul 19 12:25:50 2024
467,itaituba,-4.2761,-55.9836,93.36,38,0,9.22,BR,Fri Jul 19 12:25:50 2024
468,suva,-18.1416,178.4415,71.08,100,40,5.75,FJ,Fri Jul 19 12:25:51 2024
469,akureyri,65.6835,-18.0878,60.73,59,40,16.11,IS,Fri Jul 19 12:25:51 2024
470,ankazobe,-18.3167,47.1167,61.18,40,0,2.93,MG,Fri Jul 19 12:25:51 2024
471,black point,-34.6187,137.8972,49.84,71,29,30.38,AU,Fri Jul 19 12:25:51 2024
472,merizo village,13.2658,144.6691,80.33,95,93,12.03,GU,Fri Jul 19 12:25:51 2024
473,qamdo,31.1667,97.2333,53.15,88,100,5.99,CN,Fri Jul 19 12:25:51 2024
474,witu,-2.3889,40.4382,75.76,80,33,11.9,KE,Fri Jul 19 12:25:51 2024
475,san andres,12.5847,-81.7006,80.62,89,20,9.22,CO,Fri Jul 19 12:23:01 2024
476,barentu,15.1139,37.5928,82.45,55,72,11.36,ER,Fri Jul 19 12:25:52 2024
477,alice springs,-23.7,133.8833,47.75,43,4,6.91,AU,Fri Jul 19 12:22:58 2024
478,levuka,50.1834,-105.4011,82.13,42,40,8.05,CA,Fri Jul 19 12:25:52 2024
479,welland,42.9834,-79.2496,75.02,62,0,5.46,CA,Fri Jul 19 12:25:52 2024
480,coquimbo,-29.9533,-71.3436,55.13,77,100,3.44,CL,Fri Jul 19 12:22:59 2024
481,penonome,8.5167,-80.3667,83.28,81,100,4.0,PA,Fri Jul 19 12:25:53 2024
482,mormugao,15.4,73.8,81.66,83,100,18.41,IN,Fri Jul 19 12:25:53 2024
483,kibre mengist,5.8833,38.9833,62.92,85,97,2.64,ET,Fri Jul 19 12:25:53 2024
484,farafangana,-22.8167,47.8333,69.96,77,0,9.62,MG,Fri Jul 19 12:25:53 2024
485,ust'-barguzin,53.45,108.9833,55.36,84,38,2.13,RU,Fri Jul 19 12:25:53 2024
486,aleg,17.0481,-13.9209,100.35,34,0,4.43,MR,Fri Jul 19 12:25:53 2024
487,kattivakkam,13.2167,80.3167,83.97,86,100,11.32,IN,Fri Jul 19 12:25:54 2024
488,vila velha,-20.3297,-40.2925,76.95,75,20,20.71,BR,Fri Jul 19 12:25:54 2024
489,kamina,-8.7386,24.9906,78.22,15,62,5.35,CD,Fri Jul 19 12:25:54 2024
490,broome,42.2506,-75.833,76.17,54,40,3.44,US,Fri Jul 19 12:25:54 2024
491,saudarkrokur,65.7461,-19.6394,54.52,70,16,12.66,IS,Fri Jul 19 12:25:54 2024
492,faget,45.85,22.1833,92.73,30,30,8.66,RO,Fri Jul 19 12:25:54 2024
493,polokwane,-23.9045,29.4688,68.85,17,0,3.44,ZA,Fri Jul 19 12:25:55 2024
494,lazaro cardenas,17.9583,-102.2,86.99,56,78,1.1,MX,Fri Jul 19 12:23:45 2024
495,sorong,-0.8833,131.25,77.2,90,100,10.0,ID,Fri Jul 19 12:25:55 2024
496,awjilah,29.1081,21.2869,101.35,18,0,21.12,LY,Fri Jul 19 12:25:55 2024
497,nagatoro,36.1163,139.1071,84.09,73,100,4.41,JP,Fri Jul 19 12:25:55 2024
498,mahdia,35.5047,11.0622,91.35,47,0,9.15,TN,Fri Jul 19 12:25:55 2024
499,pitimbu,-7.4706,-34.8086,82.99,68,29,16.55,BR,Fri Jul 19 12:25:55 2024
500,ciudad lazaro cardenas,17.9583,-102.2,86.99,56,78,1.1,MX,Fri Jul 19 12:23:45 2024
501,tsiombe,-25.3,45.4833,68.67,85,0,9.17,MG,Fri Jul 19 12:25:56 2024
502,chagoda,59.164,35.3285,70.7,58,85,4.97,RU,Fri Jul 19 12:25:56 2024
503,lisakovsk,52.5369,62.4936,68.34,70,97,6.26,KZ,Fri Jul 19 12:25:56 2024
504,galeana,24.8333,-100.0667,71.22,56,76,4.32,MX,Fri Jul 19 12:25:56 2024
505,karamay,45.6004,84.8661,85.32,30,100,20.33,CN,Fri Jul 19 12:25:57 2024
506,paraiso,9.8383,-83.8656,74.95,77,95,4.68,CR,Fri Jul 19 12:21:38 2024
507,kudahuvadhoo,2.6708,72.8944,84.36,74,93,6.67,MV,Fri Jul 19 12:25:57 2024
508,villarrica,-25.75,-56.4333,83.7,38,0,7.65,PY,Fri Jul 19 12:21:44 2024
509,tataouine,32.9297,10.4518,95.94,19,0,17.78,TN,Fri Jul 19 12:25:57 2024
510,poronaysk,49.2167,143.1167,54.64,100,100,6.51,RU,Fri Jul 19 12:25:57 2024
511,vernon,50.2581,-119.2691,84.92,35,7,0.0,CA,Fri Jul 19 12:25:58 2024
512,rio hato,8.3833,-80.1667,83.75,79,75,5.75,PA,Fri Jul 19 12:25:58 2024
513,pleasant grove,40.3641,-111.7385,87.48,41,33,4.7,US,Fri Jul 19 12:25:58 2024
514,kyren,51.6828,102.1408,67.6,76,100,2.68,RU,Fri Jul 19 12:25:58 2024
515,marine corps base hawaii - mcbh,21.4453,-157.7513,76.1,86,18,9.44,US,Fri Jul 19 12:25:58 2024
516,timmins,48.4669,-81.3331,73.22,53,100,6.91,CA,Fri Jul 19 12:22:54 2024
517,pavlodar,52.3,76.95,71.4,68,40,4.47,KZ,Fri Jul 19 12:25:59 2024
518,varberg,57.1056,12.2508,70.23,72,28,7.27,SE,Fri Jul 19 12:25:59 2024
519,bonthe,7.5264,-12.505,79.68,82,86,13.94,SL,Fri Jul 19 12:25:59 2024
520,saint-joseph,-21.3667,55.6167,66.58,79,25,7.23,RE,Fri Jul 19 12:25:59 2024
521,heber city,40.5069,-111.4132,84.0,43,38,1.3,US,Fri Jul 19 12:25:59 2024
522,richards bay,-28.783,32.0377,65.71,73,19,5.68,ZA,Fri Jul 19 12:24:13 2024
523,abepura,-2.6333,140.5833,74.21,100,20,2.3,ID,Fri Jul 19 12:25:59 2024
524,staraya russa,57.9944,31.3608,67.21,88,36,8.03,RU,Fri Jul 19 12:26:00 2024
525,igarka,67.4667,86.5833,52.34,56,74,14.88,RU,Fri Jul 19 12:26:00 2024
526,revda,56.801,59.9303,62.51,86,100,2.39,RU,Fri Jul 19 12:26:00 2024
527,gamba,-2.65,10.0,74.26,74,56,8.37,GA,Fri Jul 19 12:26:00 2024
528,bondo,3.8146,23.6866,80.42,72,86,0.83,CD,Fri Jul 19 12:26:00 2024
529,vallenar,-28.5708,-70.7581,62.58,50,96,3.67,CL,Fri Jul 19 12:26:01 2024
530,nemuro,43.3236,145.575,60.6,98,100,14.23,JP,Fri Jul 19 12:24:14 2024
531,kosikha,53.3617,84.5822,64.98,95,8,7.56,RU,Fri Jul 19 12:26:01 2024
532,mustafabad,30.8922,73.4989,98.37,39,55,6.42,PK,Fri Jul 19 12:26:01 2024
533,mingshui,36.7167,117.5,78.22,79,100,11.01,CN,Fri Jul 19 12:26:01 2024
534,ixtapa,20.7,-105.2,88.23,70,0,3.44,MX,Fri Jul 19 12:26:01 2024
535,al mayadin,35.0209,40.4535,104.49,17,0,16.71,SY,Fri Jul 19 12:26:01 2024
536,san fernando,15.0286,120.6898,78.53,89,100,4.05,PH,Fri Jul 19 12:26:02 2024
537,xiamen,24.4798,118.0819,87.85,70,0,4.47,CN,Fri Jul 19 12:26:02 2024
538,saint-pierre,-21.3393,55.4781,67.68,73,0,5.75,RE,Fri Jul 19 12:26:02 2024
539,puerto real,36.5282,-6.1901,103.6,46,0,11.05,ES,Fri Jul 19 12:26:02 2024
540,kovdor,67.5662,30.4758,68.05,60,100,5.55,RU,Fri Jul 19 12:26:02 2024
541,sanya,18.2431,109.505,84.36,89,20,4.47,CN,Fri Jul 19 12:26:03 2024
542,crucecita,-28.95,-58.9833,83.5,40,13,7.07,AR,Fri Jul 19 12:26:03 2024
543,dodola,6.9833,39.1833,56.41,95,100,1.36,ET,Fri Jul 19 12:26:03 2024
544,kirkwood,38.5834,-90.4068,77.4,57,20,6.91,US,Fri Jul 19 12:26:03 2024
545,san luis de la loma,17.2706,-100.8939,85.77,61,99,3.38,MX,Fri Jul 19 12:26:03 2024
546,al bardiyah,31.7561,25.0865,85.91,59,0,16.64,LY,Fri Jul 19 12:26:03 2024
547,betio village,1.358,172.9211,82.44,71,100,9.46,KI,Fri Jul 19 12:26:03 2024
548,latehar,23.75,84.5,87.31,60,86,4.16,IN,Fri Jul 19 12:26:04 2024
549,swakopmund,-22.6833,14.5333,65.25,82,10,5.01,NA,Fri Jul 19 12:26:04 2024
550,tselinnoye,53.0833,85.6667,64.58,94,54,7.4,RU,Fri Jul 19 12:26:04 2024
551,hilo,19.7297,-155.09,69.62,94,0,5.75,US,Fri Jul 19 12:26:04 2024
552,anapa,44.8908,37.3239,91.74,38,0,13.42,RU,Fri Jul 19 12:26:04 2024
553,lerwick,60.1545,-1.1494,60.8,89,100,18.41,GB,Fri Jul 19 12:26:04 2024
554,dunedin,-45.8742,170.5036,47.8,93,100,10.0,NZ,Fri Jul 19 12:26:05 2024
555,labytnangi,66.6572,66.4183,57.54,57,92,14.27,RU,Fri Jul 19 12:26:05 2024
556,lumut,4.2323,100.6298,78.82,89,20,0.0,MY,Fri Jul 19 12:26:05 2024
557,tadine,-21.55,167.8833,65.86,71,0,14.92,NC,Fri Jul 19 12:26:05 2024
558,khanty-mansiysk,61.0042,69.0019,71.71,56,0,4.47,RU,Fri Jul 19 12:26:05 2024
559,vakarai,55.6035,23.8213,72.12,62,76,11.27,LT,Fri Jul 19 12:26:05 2024
560,det udom,14.906,105.0784,78.62,96,100,10.54,TH,Fri Jul 19 12:26:06 2024
561,gotsucho,35.0,132.2167,78.31,85,88,5.1,JP,Fri Jul 19 12:26:06 2024
562,bahir dar,11.5936,37.3908,65.34,85,75,7.52,ET,Fri Jul 19 12:26:06 2024
563,bayanaul,50.7889,75.6956,67.89,62,100,2.42,KZ,Fri Jul 19 12:26:06 2024
564,andrushivka,50.0229,29.0202,79.88,39,63,10.63,UA,Fri Jul 19 12:26:06 2024
565,bhiwani,28.7833,76.1333,96.13,49,27,12.06,IN,Fri Jul 19 12:26:06 2024
566,pochinok,54.4068,32.4407,68.34,76,66,9.66,RU,Fri Jul 19 12:26:06 2024
567,babayevo,59.3936,35.9371,68.23,64,100,3.42,RU,Fri Jul 19 12:26:07 2024
568,angatuba,-23.4897,-48.4128,74.14,40,0,4.72,BR,Fri Jul 19 12:26:07 2024
569,teshi old town,5.5836,-0.1072,81.16,83,75,16.11,GH,Fri Jul 19 12:26:07 2024
570,xinyuan,37.3,99.0,49.03,86,8,1.59,CN,Fri Jul 19 12:26:07 2024
571,chai buri,8.4622,99.0763,80.35,88,93,1.99,TH,Fri Jul 19 12:26:07 2024
572,belyy yar,53.6039,91.3903,67.89,88,0,0.0,RU,Fri Jul 19 12:26:07 2024
573,manthani,18.65,79.6667,77.63,95,100,16.87,IN,Fri Jul 19 12:26:08 2024
574,kununurra,-15.7667,128.7333,49.98,81,0,0.0,AU,Fri Jul 19 12:26:08 2024
575,zhangatas,43.5667,69.75,78.4,36,41,5.64,KZ,Fri Jul 19 12:26:08 2024
576,bosobolo,4.1833,19.9,83.71,62,99,1.59,CD,Fri Jul 19 12:26:08 2024
577,rabigh,22.7986,39.0349,92.59,51,99,11.05,SA,Fri Jul 19 12:26:08 2024
578,dumfries,38.5676,-77.328,85.01,56,40,4.61,US,Fri Jul 19 12:26:08 2024
579,candido mendes,-1.4467,-45.7167,92.21,41,8,5.17,BR,Fri Jul 19 12:26:08 2024
580,menongue,-14.6585,17.691,80.56,8,8,4.16,AO,Fri Jul 19 12:26:09 2024
581,bumba,2.1833,22.4667,79.66,72,81,2.24,CD,Fri Jul 19 12:26:09 2024
582,chul'man,56.8479,124.9104,59.14,98,100,3.15,RU,Fri Jul 19 12:26:09 2024
583,xianyang,34.3378,108.7026,78.04,100,34,6.71,CN,Fri Jul 19 12:26:09 2024
584,calama,-22.4667,-68.9333,68.49,6,0,5.75,CL,Fri Jul 19 12:22:55 2024
585,yanbu,24.0891,38.0637,107.64,11,0,20.71,SA,Fri Jul 19 12:26:09 2024
586,garachico,28.7781,-17.7646,75.31,69,0,12.66,ES,Fri Jul 19 12:26:09 2024
587,muntok,-2.0667,105.1833,80.51,81,7,10.04,ID,Fri Jul 19 12:26:10 2024
588,kukawa,12.9234,13.5606,94.69,37,89,6.91,NG,Fri Jul 19 12:26:10 2024
589,vineuil,47.5833,1.3833,90.91,49,54,8.41,FR,Fri Jul 19 12:26:10 2024
590,saranac lake,44.3295,-74.1313,72.88,58,40,1.99,US,Fri Jul 19 12:26:10 2024
591,samana,19.2056,-69.3369,85.96,84,75,9.22,DO,Fri Jul 19 12:26:10 2024
592,frederico westphalen,-27.3592,-53.3944,69.93,69,0,3.6,BR,Fri Jul 19 12:26:10 2024
